{"type":"FeatureCollection","features":[{"type":"Feature","id":"hosier","properties":{"name":"Hosier & Rutledge Lanes","description":"Iconic laneway with dense, ever-changing paste-ups, stencils and murals.","address":"Hosier Ln, Melbourne VIC 3000","suburb":"Melbourne CBD","art_count":70,"scatter_radius_m":80},"geometry":{"type":"Point","coordinates":[144.9691,-37.8165]}},{"type":"Feature","id":"flinders-lanes","properties":{"name":"AC/DC Lane & Duckboard Pl","description":"Rock-n-roll laneways of AC/DC & Duckboard—posters, stencils and venue backdrops.","address":"AC/DC Ln & Duckboard Pl, Melbourne VIC 3000","suburb":"Melbourne CBD","art_count":60,"scatter_radius_m":70},"geometry":{"type":"Point","coordinates":[144.971,-37.8154]}},{"type":"Feature","id":"chinatown","properties":{"name":"Croft & Tattersalls Alleys","description":"Tight alleys with lanterns, calligraphy-inspired tags and layered posters.","address":"Croft Alley, Melbourne VIC 3000","suburb":"Chinatown (CBD)","art_count":55,"scatter_radius_m":75},"geometry":{"type":"Point","coordinates":[144.9689,-37.8116]}},{"type":"Feature","id":"union-caledonian","properties":{"name":"Union & Caledonian Lanes","description":"Classic CBD lanes of sticker walls, shutters and paste-ups off Bourke St.","address":"Union Ln, Melbourne VIC 3000","suburb":"Melbourne CBD","art_count":30,"scatter_radius_m":60},"geometry":{"type":"Point","coordinates":[144.9649,-37.81215]}},{"type":"Feature","id":"presgrave","properties":{"name":"Presgrave Place (Framed Lane)","description":"Quirky micro-galleries with framed miniatures and shadowboxes fixed to the wall.","address":"Presgrave Pl, Melbourne VIC 3000","suburb":"Melbourne CBD","art_count":20,"scatter_radius_m":25},"geometry":{"type":"Point","coordinates":[144.96534,-37.81507]}},{"type":"Feature","id":"guildford","properties":{"name":"Guildford Lane","description":"Red-brick warehouse lane featuring shutters, paste-ups and heritage textures.","address":"Guildford Ln, Melbourne VIC 3000","suburb":"Melbourne CBD","art_count":20,"scatter_radius_m":50},"geometry":{"type":"Point","coordinates":[144.95923,-37.81152]}},{"type":"Feature","id":"haring-smith","properties":{"name":"Keith Haring Mural & Smith St","description":"Northside stretch anchored by Keith Haring’s 1984 mural and Smith St walls.","address":"Johnston St × Smith St, Collingwood VIC 3066","suburb":"Collingwood","art_count":30,"scatter_radius_m":100},"geometry":{"type":"Point","coordinates":[144.98681,-37.79938]}},{"type":"Feature","id":"easey","properties":{"name":"Easey St Murals (Trains)","description":"Industrial rail vibe—rooftop trains, loading docks and brick facades.","address":"Easey St, Collingwood VIC 3066","suburb":"Collingwood","art_count":20,"scatter_radius_m":60},"geometry":{"type":"Point","coordinates":[144.98879,-37.79815]}},{"type":"Feature","id":"rose-napier","properties":{"name":"Rose St & Napier/Fitzroy Town Hall","description":"Fitzroy cluster around Town Hall and Rose St Artists’ Market.","address":"201 Napier St, Fitzroy VIC 3065","suburb":"Fitzroy","art_count":20,"scatter_radius_m":70},"geometry":{"type":"Point","coordinates":[144.97955,-37.8021]}}]}